
$GPRMC,202301.000,A,3902.6480,N,09423.9479,W,16.08,280.64,261116,,,A*47
$GPGGA,202301.094,3902.6502,N,09423.9499,W,1,03,3.37,180.5,M,-30.6,M,,*59
$GPRMC,202301.094,A,3902.6502,N,09423.9499,W,16.29,281.14,261116,,,A*4A
$GPGGA,202307.000,3902.6606,N,09423.9917,W,1,03,3.37,180.6,M,-30.6,M,,*5D
$GPRMC,202307.000,A,3902.6606,N,09423.9917,W,19.67,281.39,261116,,,A*47
$GPGGA,202307.096,3902.6630,N,09423.9942,W,1,03,3.37,180.6,M,-30.6,M,,*57
$GPRMC,202307.096,A,3902.6630,N,09423.9942,W,19.97,281.22,261116,,,A*48
$GPGGA,202313.000,3902.6726,N,09424.0400,W,1,03,3.37,180.6,M,-30.6,M,,*5E
$GPRMC,202313.000,A,3902.6726,N,09424.0400,W,21.39,280.32,261116,,,A*4E
$GPGGA,202313.096,3902.6751,N,09424.0434,W,1,03,3.37,180.6,M,-30.6,M,,*56
$GPRMC,202313.096,A,3902.6751,N,09424.0434,W,22.23,280.24,261116,,,A*49
$GPGGA,202319.000,3902.6801,N,09424.0925,W,1,03,3.37,180.6,M,-30.6,M,,*54
$GPRMC,202319.000,A,3902.6801,N,09424.0925,W,23.00,274.80,261116,,,A*4E
$GPGGA,202319.092,3902.6804,N,09424.0944,W,1,03,3.37,180.6,M,-30.6,M,,*5D
$GPRMC,202319.092,A,3902.6804,N,09424.0944,W,23.08,273.80,261116,,,A*48
$GPGGA,202325.000,3902.6769,N,09424.1448,W,1,03,3.38,180.7,M,-30.6,M,,*53
$GPRMC,202325.000,A,3902.6769,N,09424.1448,W,24.01,264.97,261116,,,A*46
$GPGGA,202325.091,3902.6762,N,09424.1464,W,1,03,3.38,180.7,M,-30.6,M,,*5E
$GPRMC,202325.091,A,3902.6762,N,09424.1464,W,24.13,263.68,261116,,,A*4F
$GPGGA,202331.000,3902.6680,N,09424.1948,W,1,03,3.38,180.7,M,-30.5,M,,*5E
$GPRMC,202331.000,A,3902.6680,N,09424.1948,W,23.57,258.08,261116,,,A*45
$GPGGA,202331.091,3902.6666,N,09424.1950,W,1,03,3.38,180.7,M,-30.5,M,,*57
$GPRMC,202331.091,A,3902.6666,N,09424.1950,W,23.50,256.57,261116,,,A*4F
$GPGGA,202337.000,3902.6505,N,09424.2346,W,1,03,3.38,180.6,M,-30.5,M,,*50
$GPRMC,202337.000,A,3902.6505,N,09424.2346,W,20.89,248.84,261116,,,A*4F
$GPGGA,202337.090,3902.6484,N,09424.2294,W,1,03,3.38,180.6,M,-30.5,M,,*5F
$GPRMC,202337.090,A,3902.6484,N,09424.2294,W,18.07,245.99,261116,,,A*4C
$GPGGA,202343.000,3902.6387,N,09424.2423,W,1,03,3.38,180.6,M,-30.5,M,,*5B
$GPRMC,202343.000,A,3902.6387,N,09424.2423,W,8.02,240.83,261116,,,A*72
$GPGGA,202343.090,3902.6397,N,09424.2417,W,1,03,3.38,180.6,M,-30.5,M,,*54
$GPRMC,202343.090,A,3902.6397,N,09424.2417,W,8.00,249.09,261116,,,A*74
$GPGGA,202349.000,3902.6466,N,09424.2556,W,1,03,3.39,184.1,M,-30.5,M,,*58
$GPRMC,202349.000,A,3902.6466,N,09424.2556,W,10.05,301.83,261116,,,A*49
$GPGGA,202349.089,3902.6525,N,09424.2571,W,1,03,3.38,185.7,M,-30.5,M,,*5C
$GPRMC,202349.089,A,3902.6525,N,09424.2571,W,12.46,312.11,261116,,,A*47
$GPGGA,202355.000,3902.6812,N,09424.2768,W,1,03,3.39,190.2,M,-30.5,M,,*53
$GPRMC,202355.000,A,3902.6812,N,09424.2768,W,17.83,329.52,261116,,,A*4B
$GPGGA,202355.093,3902.6894,N,09424.2791,W,1,03,3.39,192.4,M,-30.5,M,,*55
$GPRMC,202355.093,A,3902.6894,N,09424.2791,W,18.93,332.67,261116,,,A*4B
$GPGGA,202401.000,3902.7262,N,09424.3008,W,1,03,3.39,194.9,M,-30.5,M,,*56
$GPRMC,202401.000,A,3902.7262,N,09424.3008,W,21.06,335.79,261116,,,A*4D
$GPGGA,202401.092,3902.7346,N,09424.3040,W,1,03,3.39,197.1,M,-30.5,M,,*5D
$GPRMC,202401.092,A,3902.7346,N,09424.3040,W,21.49,335.80,261116,,,A*40
$GPGGA,202407.000,3902.7784,N,09424.3250,W,1,03,3.39,200.3,M,-30.5,M,,*56
$GPRMC,202407.000,A,3902.7784,N,09424.3250,W,22.32,339.03,261116,,,A*4C
$GPGGA,202407.096,3902.7841,N,09424.3274,W,1,03,3.39,201.7,M,-30.5,M,,*5C
$GPRMC,202407.096,A,3902.7841,N,09424.3274,W,22.46,342.88,261116,,,A*4F
$GPGGA,202413.000,3902.8270,N,09424.3380,W,1,03,3.40,204.2,M,-30.5,M,,*55
$GPRMC,202413.000,A,3902.8270,N,09424.3380,W,23.49,348.96,261116,,,A*43
$GPGGA,202413.095,3902.8313,N,09424.3395,W,1,03,17.68,205.2,M,-30.5,M,,*67
$GPRMC,202413.095,A,3902.8313,N,09424.3395,W,23.73,350.73,261116,,,A*44
$GPGGA,202419.000,3902.8720,N,09424.3424,W,1,03,17.69,206.0,M,-30.5,M,,*68
$GPGGA,202419.091,3902.8749,N,09424.3410,W,1,03,3.40,183.7,M,-30.5,M,,*5F
$GPRMC,202419.091,A,3902.8749,N,09424.3410,W,23.59,358.41,261116,,,A*4A
$GPGGA,202425.000,3902.9113,N,09424.3406,W,1,03,17.71,183.3,M,-30.5,M,,*64
$GPGGA,202425.090,3902.9122,N,09424.3400,W,1,03,17.71,183.3,M,-30.5,M,,*69
$GPRMC,202425.090,A,3902.9122,N,09424.3400,W,21.51,0.72,261116,,,A*4B
$GPGGA,202431.000,3902.9448,N,09424.3395,W,1,03,17.73,182.9,M,-30.5,M,,*6E
$GPGGA,202431.148,3902.9464,N,09424.3394,W,1,03,17.73,182.9,M,-30.5,M,,*63
$GPRMC,202431.148,A,3902.9464,N,09424.3394,W,20.37,359.82,261116,,,A*46
$GPGGA,202437.000,3902.9787,N,09424.3392,W,1,03,17.74,182.5,M,-30.5,M,,*64
$GPRMC,202437.000,A,3902.9787,N,09424.3392,W,19.77,359.50,261116,,,A*44
$GPGGA,202437.308,3902.9768,N,09424.3390,W,1,03,17.74,182.5,M,-30.5,M,,*61
$GPRMC,202437.308,A,3902.9768,N,09424.3390,W,16.37,357.49,261116,,,A*41
$GPGGA,202443.000,3902.9939,N,09424.3403,W,1,03,17.76,182.0,M,-30.5,M,,*64
$GPRMC,202443.000,A,3902.9939,N,09424.3403,W,11.31,353.27,261116,,,A*43
$GPGGA,202443.093,3902.9922,N,09424.3399,W,1,03,17.76,182.0,M,-30.5,M,,*60
$GPRMC,202443.093,A,3902.9922,N,09424.3399,W,10.27,353.10,261116,,,A*45
$GPGGA,202449.000,3902.9963,N,09424.3411,W,1,03,17.78,181.4,M,-30.5,M,,*6B
$GPRMC,202449.000,A,3902.9963,N,09424.3411,W,4.46,346.01,261116,,,A*71
$GPGGA,202449.092,3902.9935,N,09424.3406,W,1,03,17.78,181.4,M,-30.5,M,,*65
$GPRMC,202449.092,A,3902.9935,N,09424.3406,W,3.65,344.43,261116,,,A*7D
$GPGGA,202455.000,3902.9954,N,09424.3440,W,1,03,3.41,179.7,M,-30.5,M,,*5D
$GPGGA,202455.088,3902.9948,N,09424.3422,W,1,04,2.92,190.9,M,-30.5,M,,*55
$GPRMC,202455.088,A,3902.9948,N,09424.3422,W,2.16,341.25,261116,,,A*77
$GPGGA,202501.000,3902.9993,N,09424.3442,W,1,05,2.58,192.7,M,-30.5,M,,*5E
$GPRMC,202501.000,A,3902.9993,N,09424.3442,W,3.65,352.16,261116,,,A*70
$GPGGA,202506.000,3903.0052,N,09424.3712,W,1,06,2.03,198.3,M,-30.5,M,,*50
$GPRMC,202506.000,A,3903.0052,N,09424.3712,W,18.62,285.61,261116,,,A*4B
$GPGGA,202511.000,3903.0086,N,09424.4184,W,1,06,1.46,198.5,M,-30.5,M,,*55
$GPRMC,202511.000,A,3903.0086,N,09424.4184,W,31.14,275.42,261116,,,A*4E
$GPGGA,202516.000,3903.0113,N,09424.4777,W,1,06,1.46,203.4,M,-30.5,M,,*55
$GPRMC,202516.000,A,3903.0113,N,09424.4777,W,30.14,274.18,261116,,,A*41
$GPGGA,202521.000,3903.0115,N,09424.5372,W,1,06,1.46,209.4,M,-30.5,M,,*5D
$GPRMC,202521.000,A,3903.0115,N,09424.5372,W,31.73,273.55,261116,,,A*4D
$GPGGA,202526.000,3903.0125,N,09424.5924,W,1,06,1.46,214.8,M,-30.5,M,,*50
$GPRMC,202526.000,A,3903.0125,N,09424.5924,W,31.05,272.50,261116,,,A*45
$GPGGA,202531.000,3903.0119,N,09424.6503,W,1,06,1.46,225.7,M,-30.5,M,,*5E
$GPRMC,202531.000,A,3903.0119,N,09424.6503,W,31.49,272.36,261116,,,A*4E
$GPGGA,202536.000,3903.0121,N,09424.7094,W,1,06,1.46,231.3,M,-30.5,M,,*59
$GPRMC,202536.000,A,3903.0121,N,09424.7094,W,32.74,271.71,261116,,,A*45
$GPGGA,202541.000,3903.0117,N,09424.7700,W,1,06,1.46,242.8,M,-30.5,M,,*59
$GPRMC,202541.000,A,3903.0117,N,09424.7700,W,31.98,272.33,261116,,,A*4E
$GPGGA,202546.000,3903.0114,N,09424.8256,W,1,06,1.46,248.4,M,-30.5,M,,*52
$GPRMC,202546.000,A,3903.0114,N,09424.8256,W,28.48,271.65,261116,,,A*46
$GPGGA,202551.000,3903.0117,N,09424.8701,W,1,06,1.46,258.2,M,-30.5,M,,*57
$GPRMC,202551.000,A,3903.0117,N,09424.8701,W,19.21,271.66,261116,,,A*4A
$GPGGA,202556.000,3903.0112,N,09424.8876,W,1,06,1.46,262.6,M,-30.5,M,,*57
$GPRMC,202556.000,A,3903.0112,N,09424.8876,W,0.09,271.66,261116,,,A*75
$GPGGA,202601.000,3903.0104,N,09424.8889,W,1,06,1.46,266.2,M,-30.5,M,,*51
$GPRMC,202601.000,A,3903.0104,N,09424.8889,W,0.08,271.66,261116,,,A*72
$GPGGA,202606.000,3903.0103,N,09424.8895,W,1,07,1.28,269.8,M,-30.5,M,,*50
$GPRMC,202606.000,A,3903.0103,N,09424.8895,W,0.06,271.66,261116,,,A*71
$GPGGA,202611.000,3903.0101,N,09424.8886,W,1,07,1.28,272.1,M,-30.5,M,,*55
$GPRMC,202611.000,A,3903.0101,N,09424.8886,W,0.04,271.66,261116,,,A*75
$GPGGA,202616.000,3903.0107,N,09424.8881,W,1,07,1.28,273.3,M,-30.5,M,,*50
$GPRMC,202616.000,A,3903.0107,N,09424.8881,W,14.41,2.65,261116,,,A*42
$GPGGA,202621.000,3903.0453,N,09424.8886,W,1,07,1.36,276.3,M,-30.5,M,,*5D
$GPRMC,202621.000,A,3903.0453,N,09424.8886,W,29.80,358.82,261116,,,A*43
$GPGGA,202626.000,3903.0842,N,09424.8904,W,1,06,1.57,278.2,M,-30.5,M,,*54
$GPRMC,202626.000,A,3903.0842,N,09424.8904,W,21.70,358.89,261116,,,A*4F
$GPGGA,202631.000,3903.1027,N,09424.8908,W,1,07,1.36,277.5,M,-30.5,M,,*5A
$GPRMC,202631.000,A,3903.1027,N,09424.8908,W,2.22,12.63,261116,,,A*40
$GPGGA,202636.000,3903.1059,N,09424.8914,W,1,07,1.36,276.4,M,-30.5,M,,*59
$GPRMC,202636.000,A,3903.1059,N,09424.8914,W,0.56,12.63,261116,,,A*42
$GPGGA,202641.000,3903.1063,N,09424.8912,W,1,07,1.28,277.1,M,-30.5,M,,*5D
$GPRMC,202641.000,A,3903.1063,N,09424.8912,W,0.02,12.63,261116,,,A*4C
$GPGGA,202646.001,3903.1067,N,09424.8918,W,1,07,1.28,277.6,M,-30.5,M,,*52
$GPRMC,202646.001,A,3903.1067,N,09424.8918,W,0.06,12.63,261116,,,A*40
$GPGGA,202651.000,3903.1065,N,09424.8921,W,1,07,1.36,278.0,M,-30.5,M,,*5B
$GPRMC,202651.000,A,3903.1065,N,09424.8921,W,0.14,12.63,261116,,,A*4C
$GPGGA,202656.000,3903.1064,N,09424.8919,W,1,07,1.28,278.1,M,-30.5,M,,*58
$GPRMC,202656.000,A,3903.1064,N,09424.8919,W,3.83,320.36,261116,,,A*7E
$GPGGA,202701.000,3903.1105,N,09424.9072,W,1,07,1.28,279.7,M,-30.5,M,,*5F
$GPRMC,202701.000,A,3903.1105,N,09424.9072,W,9.97,285.35,261116,,,A*7C
$GPGGA,202706.000,3903.1169,N,09424.9186,W,1,07,1.28,279.9,M,-30.5,M,,*56
$GPRMC,202706.000,A,3903.1169,N,09424.9186,W,7.23,353.06,261116,,,A*70
$GPGGA,202711.000,3903.1213,N,09424.9208,W,1,07,1.35,280.2,M,-30.5,M,,*5A
$GPRMC,202711.000,A,3903.1213,N,09424.9208,W,0.79,234.92,261116,,,A*78
$GPGGA,202716.000,3903.1217,N,09424.9227,W,1,07,1.28,281.1,M,-30.5,M,,*5A
$GPRMC,202716.000,A,3903.1217,N,09424.9227,W,1.63,315.71,261116,,,A*73
$GPGGA,202721.000,3903.1218,N,09424.9246,W,1,07,1.28,281.5,M,-30.5,M,,*52
$GPRMC,202721.000,A,3903.1218,N,09424.9246,W,0.18,315.71,261116,,,A*72
$GPGGA,202726.000,3903.1213,N,09424.9238,W,1,07,1.28,282.2,M,-30.5,M,,*53
$GPRMC,202726.000,A,3903.1213,N,09424.9238,W,0.60,138.93,261116,,,A*79
$GPGGA,202731.000,3903.1202,N,09424.9238,W,1,07,1.28,282.5,M,-30.5,M,,*52
$GPRMC,202731.000,A,3903.1202,N,09424.9238,W,0.22,138.93,261116,,,A*79
$GPGGA,202736.000,3903.1200,N,09424.9237,W,1,07,1.28,282.5,M,-30.5,M,,*58
$GPRMC,202736.000,A,3903.1200,N,09424.9237,W,0.23,138.93,261116,,,A*72
$GPGGA,202741.000,3903.1201,N,09424.9247,W,1,06,1.33,283.8,M,-30.5,M,,*59
$GPRMC,202741.000,A,3903.1201,N,09424.9247,W,0.19,138.93,261116,,,A*7D
$GPGGA,202746.000,3903.1199,N,09424.9249,W,1,06,1.33,285.1,M,-30.5,M,,*5D
$GPRMC,202746.000,A,3903.1199,N,09424.9249,W,0.17,138.93,261116,,,A*78
$GPGGA,202751.000,3903.1201,N,09424.9248,W,1,07,1.28,285.3,M,-30.5,M,,*51
$GPRMC,202751.000,A,3903.1201,N,09424.9248,W,0.08,138.93,261116,,,A*73
$GPGGA,202756.000,3903.1200,N,09424.9247,W,1,06,1.33,285.5,M,-30.5,M,,*55
$GPRMC,202756.000,A,3903.1200,N,09424.9247,W,0.21,138.93,261116,,,A*71
$GPGGA,202801.000,3903.1199,N,09424.9250,W,1,06,1.33,285.6,M,-30.5,M,,*5E
$GPRMC,202801.000,A,3903.1199,N,09424.9250,W,0.23,138.93,261116,,,A*7B
$GPGGA,202806.000,3903.1202,N,09424.9251,W,1,08,1.14,285.4,M,-30.5,M,,*50
$GPRMC,202806.000,A,3903.1202,N,09424.9251,W,0.56,138.93,261116,,,A*7E
$GPGGA,202811.000,3903.1195,N,09424.9246,W,1,08,1.08,285.5,M,-30.5,M,,*51
$GPRMC,202811.000,A,3903.1195,N,09424.9246,W,0.39,138.93,261116,,,A*7A
$GPGGA,202816.000,3903.1190,N,09424.9245,W,1,08,1.08,285.5,M,-30.5,M,,*50
$GPRMC,202816.000,A,3903.1190,N,09424.9245,W,0.44,138.93,261116,,,A*71
$GPGGA,202821.000,3903.1194,N,09424.9251,W,1,08,1.08,285.6,M,-30.5,M,,*56
$GPRMC,202821.000,A,3903.1194,N,09424.9251,W,0.52,138.93,261116,,,A*73
$GPGGA,202826.000,3903.1200,N,09424.9247,W,1,08,1.08,285.4,M,-30.5,M,,*5A
$GPRMC,202826.000,A,3903.1200,N,09424.9247,W,0.15,138.93,261116,,,A*7E
$GPGGA,202831.000,3903.1202,N,09424.9246,W,1,08,1.08,285.5,M,-30.5,M,,*5E
$GPRMC,202831.000,A,3903.1202,N,09424.9246,W,0.16,138.93,261116,,,A*78
$GPGGA,202836.000,3903.1202,N,09424.9243,W,1,08,1.08,285.6,M,-30.5,M,,*5F
$GPRMC,202836.000,A,3903.1202,N,09424.9243,W,0.19,138.93,261116,,,A*75
$GPGGA,202841.000,3903.1205,N,09424.9242,W,1,08,1.14,285.7,M,-30.5,M,,*55
$GPRMC,202841.000,A,3903.1205,N,09424.9242,W,0.19,138.93,261116,,,A*73
$GPGGA,202846.000,3903.1207,N,09424.9241,W,1,08,1.14,285.7,M,-30.5,M,,*53
$GPRMC,202846.000,A,3903.1207,N,09424.9241,W,0.26,138.93,261116,,,A*79
$GPGGA,202851.000,3903.1210,N,09424.9239,W,1,08,1.08,285.7,M,-30.5,M,,*51
$GPRMC,202851.000,A,3903.1210,N,09424.9239,W,0.05,138.93,261116,,,A*77
$GPGGA,202856.000,3903.1210,N,09424.9239,W,1,08,1.08,285.8,M,-30.5,M,,*59
$GPRMC,202856.000,A,3903.1210,N,09424.9239,W,0.26,138.93,261116,,,A*71
$GPGGA,202901.000,3903.1214,N,09424.9241,W,1,08,1.08,285.9,M,-30.5,M,,*50
$GPRMC,202901.000,A,3903.1214,N,09424.9241,W,0.14,138.93,261116,,,A*78
$GPGGA,202906.000,3903.1212,N,09424.9240,W,1,08,1.08,286.0,M,-30.5,M,,*5A
$GPRMC,202906.000,A,3903.1212,N,09424.9240,W,0.17,138.93,261116,,,A*7B
$GPGGA,202911.000,3903.1209,N,09424.9241,W,1,08,1.08,286.1,M,-30.5,M,,*56
$GPRMC,202911.000,A,3903.1209,N,09424.9241,W,0.51,138.93,261116,,,A*74
$GPGGA,202916.000,3903.1203,N,09424.9236,W,1,08,1.08,286.3,M,-30.5,M,,*59
$GPRMC,202916.000,A,3903.1203,N,09424.9236,W,0.33,138.93,261116,,,A*7D
$GPGGA,202921.000,3903.1199,N,09424.9239,W,1,08,1.08,286.4,M,-30.5,M,,*55
$GPRMC,202921.000,A,3903.1199,N,09424.9239,W,0.29,138.93,261116,,,A*7D
$GPGGA,202926.000,3903.1202,N,09424.9242,W,1,08,1.08,286.5,M,-30.5,M,,*5E
$GPRMC,202926.000,A,3903.1202,N,09424.9242,W,0.19,138.93,261116,,,A*74
$GPGGA,202931.000,3903.1200,N,09424.9243,W,1,08,1.08,286.5,M,-30.5,M,,*5B
$GPRMC,202931.000,A,3903.1200,N,09424.9243,W,0.05,138.93,261116,,,A*7C
$GPGGA,202936.000,3903.1199,N,09424.9243,W,1,08,1.08,286.6,M,-30.5,M,,*5C
$GPRMC,202936.000,A,3903.1199,N,09424.9243,W,0.18,138.93,261116,,,A*74
$GPGGA,202941.000,3903.1197,N,09424.9243,W,1,08,1.08,286.6,M,-30.5,M,,*52
$GPRMC,202941.000,A,3903.1197,N,09424.9243,W,0.16,138.93,261116,,,A*74
$GPGGA,202946.000,3903.1194,N,09424.9242,W,1,08,1.08,286.7,M,-30.5,M,,*56
$GPRMC,202946.000,A,3903.1194,N,09424.9242,W,0.23,138.93,261116,,,A*77
$GPGGA,202951.000,3903.1191,N,09424.9242,W,1,08,1.08,286.7,M,-30.5,M,,*55
$GPRMC,202951.000,A,3903.1191,N,09424.9242,W,0.47,138.93,261116,,,A*76
$GPGGA,202956.000,3903.1185,N,09424.9239,W,1,08,1.08,286.7,M,-30.5,M,,*5B
$GPRMC,202956.000,A,3903.1185,N,09424.9239,W,0.26,138.93,261116,,,A*7F
$GPGGA,203001.000,3903.1182,N,09424.9240,W,1,08,1.07,286.7,M,-30.5,M,,*57
$GPRMC,203001.000,A,3903.1182,N,09424.9240,W,0.36,138.93,261116,,,A*7D
$GPGGA,203006.000,3903.1177,N,09424.9239,W,1,09,0.99,286.7,M,-30.5,M,,*53
$GPRMC,203006.000,A,3903.1177,N,09424.9239,W,0.38,138.93,261116,,,A*70
$GPGGA,203011.000,3903.1173,N,09424.9235,W,1,09,0.99,286.7,M,-30.5,M,,*5D
$GPRMC,203011.000,A,3903.1173,N,09424.9235,W,0.46,138.93,261116,,,A*77
$GPGGA,203016.000,3903.1167,N,09424.9233,W,1,09,0.99,286.7,M,-30.5,M,,*59
$GPRMC,203016.000,A,3903.1167,N,09424.9233,W,0.18,138.93,261116,,,A*78
$GPGGA,203021.000,3903.1165,N,09424.9233,W,1,09,0.99,286.7,M,-30.5,M,,*5F
$GPRMC,203021.000,A,3903.1165,N,09424.9233,W,0.47,138.93,261116,,,A*74
$GPGGA,203026.000,3903.1171,N,09424.9235,W,1,09,0.99,286.6,M,-30.5,M,,*5A
$GPRMC,203026.000,A,3903.1171,N,09424.9235,W,0.13,138.93,261116,,,A*71
$GPGGA,203031.000,3903.1171,N,09424.9233,W,1,09,0.99,286.6,M,-30.5,M,,*5A
$GPRMC,203031.000,A,3903.1171,N,09424.9233,W,0.01,138.93,261116,,,A*72
$GPGGA,203036.000,3903.1171,N,09424.9233,W,1,09,0.99,286.5,M,-30.5,M,,*5E
$GPRMC,203036.000,A,3903.1171,N,09424.9233,W,0.06,138.93,261116,,,A*72
$GPGGA,203041.000,3903.1171,N,09424.9233,W,1,09,0.99,286.5,M,-30.5,M,,*5E
$GPRMC,203041.000,A,3903.1171,N,09424.9233,W,0.28,138.93,261116,,,A*7E
$GPGGA,203046.000,3903.1175,N,09424.9235,W,1,09,0.99,286.4,M,-30.5,M,,*5A
$GPRMC,203046.000,A,3903.1175,N,09424.9235,W,0.51,138.93,261116,,,A*75
$GPGGA,203051.000,3903.1182,N,09424.9237,W,1,09,1.00,286.3,M,-30.5,M,,*50
$GPRMC,203051.000,A,3903.1182,N,09424.9237,W,0.96,322.16,261116,,,A*76
$GPGGA,203056.000,3903.1189,N,09424.9242,W,1,09,0.99,286.1,M,-30.5,M,,*5D
$GPRMC,203056.000,A,3903.1189,N,09424.9242,W,0.92,337.83,261116,,,A*74
$GPGGA,203101.000,3903.1189,N,09424.9242,W,1,09,0.99,285.4,M,-30.5,M,,*58
$GPRMC,203101.000,A,3903.1189,N,09424.9242,W,0.37,337.83,261116,,,A*78
$GPGGA,203106.000,3903.1188,N,09424.9238,W,1,09,0.99,285.8,M,-30.5,M,,*5F
$GPRMC,203106.000,A,3903.1188,N,09424.9238,W,0.30,337.83,261116,,,A*74
$GPGGA,203111.000,3903.1193,N,09424.9242,W,1,09,0.99,285.0,M,-30.5,M,,*56
$GPRMC,203111.000,A,3903.1193,N,09424.9242,W,0.26,337.83,261116,,,A*72
$GPGGA,203116.000,3903.1193,N,09424.9243,W,1,09,1.00,284.2,M,-30.5,M,,*52
$GPRMC,203116.000,A,3903.1193,N,09424.9243,W,0.28,337.83,261116,,,A*7A
$GPGGA,203121.000,3903.1193,N,09424.9242,W,1,09,0.99,283.9,M,-30.5,M,,*5A
$GPRMC,203121.000,A,3903.1193,N,09424.9242,W,0.06,337.83,261116,,,A*73
$GPGGA,203126.000,3903.1193,N,09424.9245,W,1,09,0.99,283.1,M,-30.5,M,,*52
$GPRMC,203126.000,A,3903.1193,N,09424.9245,W,0.33,337.83,261116,,,A*75
$GPGGA,203131.000,3903.1196,N,09424.9246,W,1,09,1.00,283.2,M,-30.5,M,,*50
$GPRMC,203131.000,A,3903.1196,N,09424.9246,W,0.40,337.83,261116,,,A*71
$GPGGA,203136.000,3903.1193,N,09424.9248,W,1,09,0.99,282.8,M,-30.5,M,,*56
$GPRMC,203136.000,A,3903.1193,N,09424.9248,W,0.14,337.83,261116,,,A*7C
$GPGGA,203141.000,3903.1188,N,09424.9241,W,1,09,0.99,282.9,M,-30.5,M,,*54
$GPRMC,203141.000,A,3903.1188,N,09424.9241,W,0.39,337.83,261116,,,A*70
$GPGGA,203146.000,3903.1188,N,09424.9239,W,1,09,0.99,282.4,M,-30.5,M,,*51
$GPRMC,203146.000,A,3903.1188,N,09424.9239,W,0.61,134.28,261116,,,A*75
$GPGGA,203151.000,3903.1190,N,09424.9235,W,1,09,0.99,282.3,M,-30.5,M,,*55
$GPRMC,203151.000,A,3903.1190,N,09424.9235,W,0.44,134.28,261116,,,A*71
$GPGGA,203156.000,3903.1186,N,09424.9230,W,1,09,0.99,282.0,M,-30.5,M,,*53
$GPRMC,203156.000,A,3903.1186,N,09424.9230,W,0.74,137.79,261116,,,A*70
$GPGGA,203201.000,3903.1182,N,09424.9227,W,1,09,0.99,281.8,M,-30.5,M,,*5B
$GPRMC,203201.000,A,3903.1182,N,09424.9227,W,0.22,137.79,261116,,,A*70
$GPGGA,203206.000,3903.1187,N,09424.9233,W,1,09,0.99,281.7,M,-30.5,M,,*53
$GPRMC,203206.000,A,3903.1187,N,09424.9233,W,0.63,326.78,261116,,,A*71
$GPGGA,203211.000,3903.1179,N,09424.9227,W,1,09,0.99,282.2,M,-30.5,M,,*57
$GPRMC,203211.000,A,3903.1179,N,09424.9227,W,0.57,326.78,261116,,,A*74
$GPGGA,203216.000,3903.1182,N,09424.9225,W,1,09,0.99,282.1,M,-30.5,M,,*55
$GPRMC,203216.000,A,3903.1182,N,09424.9225,W,0.50,326.78,261116,,,A*72
$GPGGA,203221.000,3903.1184,N,09424.9227,W,1,09,0.99,282.1,M,-30.5,M,,*55
$GPRMC,203221.000,A,3903.1184,N,09424.9227,W,0.11,326.78,261116,,,A*77
$GPGGA,203226.000,3903.1192,N,09424.9233,W,1,09,0.99,282.0,M,-30.5,M,,*51
$GPRMC,203226.000,A,3903.1192,N,09424.9233,W,0.08,326.78,261116,,,A*7A
$GPGGA,203231.000,3903.1192,N,09424.9234,W,1,09,0.99,282.1,M,-30.5,M,,*51
$GPRMC,203231.000,A,3903.1192,N,09424.9234,W,0.23,326.78,261116,,,A*72
$GPGGA,203236.000,3903.1195,N,09424.9236,W,1,09,0.99,282.1,M,-30.5,M,,*53
$GPRMC,203236.000,A,3903.1195,N,09424.9236,W,0.11,326.78,261116,,,A*71
$GPGGA,203241.000,3903.1194,N,09424.9237,W,1,09,0.99,282.1,M,-30.5,M,,*53
$GPRMC,203241.000,A,3903.1194,N,09424.9237,W,0.22,326.78,261116,,,A*71
$GPGGA,203246.000,3903.1191,N,09424.9235,W,1,09,0.99,282.2,M,-30.5,M,,*50
$GPRMC,203246.000,A,3903.1191,N,09424.9235,W,0.46,326.78,261116,,,A*73
$GPGGA,203251.000,3903.1195,N,09424.9242,W,1,09,0.99,282.2,M,-30.5,M,,*52
$GPRMC,203251.000,A,3903.1195,N,09424.9242,W,0.17,326.78,261116,,,A*75
$GPGGA,203256.000,3903.1198,N,09424.9243,W,1,09,0.99,282.2,M,-30.5,M,,*59
$GPRMC,203256.000,A,3903.1198,N,09424.9243,W,0.15,326.78,261116,,,A*7C
$GPGGA,203301.000,3903.1198,N,09424.9240,W,1,09,0.99,282.2,M,-30.5,M,,*59
$GPRMC,203301.000,A,3903.1198,N,09424.9240,W,0.20,326.78,261116,,,A*7A
$GPGGA,203306.000,3903.1196,N,09424.9238,W,1,09,0.99,282.3,M,-30.5,M,,*5E
$GPRMC,203306.000,A,3903.1196,N,09424.9238,W,0.28,326.78,261116,,,A*74
$GPGGA,203311.000,3903.1193,N,09424.9236,W,1,09,0.99,282.3,M,-30.5,M,,*53
$GPRMC,203311.000,A,3903.1193,N,09424.9236,W,0.35,326.78,261116,,,A*75
$GPGGA,203316.000,3903.1189,N,09424.9232,W,1,09,0.99,282.2,M,-30.5,M,,*5A
$GPRMC,203316.000,A,3903.1189,N,09424.9232,W,0.33,326.78,261116,,,A*7B
$GPGGA,203321.000,3903.1185,N,09424.9230,W,1,09,0.99,282.2,M,-30.5,M,,*50
$GPRMC,203321.000,A,3903.1185,N,09424.9230,W,0.26,326.78,261116,,,A*75
$GPGGA,203326.000,3903.1181,N,09424.9229,W,1,09,0.99,282.1,M,-30.5,M,,*58
$GPRMC,203326.000,A,3903.1181,N,09424.9229,W,0.29,326.78,261116,,,A*71
$GPGGA,203331.000,3903.1178,N,09424.9230,W,1,09,0.99,282.1,M,-30.5,M,,*50
$GPRMC,203331.000,A,3903.1178,N,09424.9230,W,0.32,326.78,261116,,,A*73
$GPGGA,203336.000,3903.1175,N,09424.9225,W,1,09,0.99,282.2,M,-30.5,M,,*5D
$GPRMC,203336.000,A,3903.1175,N,09424.9225,W,0.38,326.78,261116,,,A*77
$GPGGA,203341.000,3903.1181,N,09424.9227,W,1,09,1.00,282.2,M,-30.5,M,,*55
$GPRMC,203341.000,A,3903.1181,N,09424.9227,W,0.33,326.78,261116,,,A*75
$GPGGA,203346.000,3903.1185,N,09424.9230,W,1,09,0.99,282.2,M,-30.5,M,,*51
$GPRMC,203346.000,A,3903.1185,N,09424.9230,W,0.45,326.78,261116,,,A*71
$GPGGA,203351.000,3903.1190,N,09424.9233,W,1,09,0.99,282.3,M,-30.5,M,,*51
$GPRMC,203351.000,A,3903.1190,N,09424.9233,W,0.18,326.78,261116,,,A*78
$GPGGA,203356.000,3903.1189,N,09424.9230,W,1,09,0.99,282.4,M,-30.5,M,,*5A
$GPRMC,203356.000,A,3903.1189,N,09424.9230,W,0.12,326.78,261116,,,A*7E
$GPGGA,203401.000,3903.1188,N,09424.9230,W,1,09,0.99,282.4,M,-30.5,M,,*5E
$GPRMC,203401.000,A,3903.1188,N,09424.9230,W,0.20,326.78,261116,,,A*7B
$GPGGA,203406.000,3903.1190,N,09424.9231,W,1,09,0.99,282.5,M,-30.5,M,,*50
$GPRMC,203406.000,A,3903.1190,N,09424.9231,W,0.16,326.78,261116,,,A*71
$GPGGA,203411.000,3903.1188,N,09424.9233,W,1,09,0.99,282.5,M,-30.5,M,,*5D
$GPRMC,203411.000,A,3903.1188,N,09424.9233,W,0.58,125.06,261116,,,A*7E
$GPGGA,203416.000,3903.1188,N,09424.9233,W,1,09,0.99,282.3,M,-30.5,M,,*5C
$GPRMC,203416.000,A,3903.1188,N,09424.9233,W,0.14,125.06,261116,,,A*71
$GPGGA,203421.000,3903.1186,N,09424.9236,W,1,09,0.99,282.3,M,-30.5,M,,*53
$GPRMC,203421.000,A,3903.1186,N,09424.9236,W,0.79,163.06,261116,,,A*77
$GPGGA,203426.000,3903.1184,N,09424.9236,W,1,09,0.99,282.5,M,-30.5,M,,*50
$GPRMC,203426.000,A,3903.1184,N,09424.9236,W,0.59,150.70,261116,,,A*71
$GPGGA,203431.000,3903.1194,N,09424.9243,W,1,09,0.99,282.3,M,-30.5,M,,*53
$GPRMC,203431.000,A,3903.1194,N,09424.9243,W,0.26,150.70,261116,,,A*7C
$GPGGA,203436.000,3903.1198,N,09424.9249,W,1,09,0.99,282.3,M,-30.5,M,,*52
$GPRMC,203436.000,A,3903.1198,N,09424.9249,W,0.48,150.70,261116,,,A*75
$GPGGA,203441.000,3903.1196,N,09424.9249,W,1,09,0.99,282.5,M,-30.5,M,,*5A
$GPRMC,203441.000,A,3903.1196,N,09424.9249,W,0.13,150.70,261116,,,A*75
$GPGGA,203446.000,3903.1202,N,09424.9253,W,1,09,0.99,283.0,M,-30.5,M,,*5C
$GPRMC,203446.000,A,3903.1202,N,09424.9253,W,0.14,150.70,261116,,,A*70
$GPGGA,203451.000,3903.1204,N,09424.9252,W,1,09,0.99,283.0,M,-30.5,M,,*5D
$GPRMC,203451.000,A,3903.1204,N,09424.9252,W,0.08,150.70,261116,,,A*7C
$GPGGA,203456.000,3903.1206,N,09424.9252,W,1,09,1.00,283.1,M,-30.5,M,,*58
$GPRMC,203456.000,A,3903.1206,N,09424.9252,W,0.59,342.65,261116,,,A*78
$GPGGA,203501.000,3903.1212,N,09424.9260,W,1,09,0.99,283.1,M,-30.5,M,,*5E
$GPRMC,203501.000,A,3903.1212,N,09424.9260,W,0.11,342.65,261116,,,A*73
$GPGGA,203506.000,3903.1211,N,09424.9260,W,1,08,1.07,283.2,M,-30.5,M,,*5E
$GPRMC,203506.000,A,3903.1211,N,09424.9260,W,0.32,342.65,261116,,,A*76
$GPGGA,203511.000,3903.1207,N,09424.9258,W,1,08,1.07,283.1,M,-30.5,M,,*57
$GPRMC,203511.000,A,3903.1207,N,09424.9258,W,0.31,342.65,261116,,,A*7F
$GPGGA,203516.000,3903.1209,N,09424.9256,W,1,08,1.07,283.7,M,-30.5,M,,*56
$GPRMC,203516.000,A,3903.1209,N,09424.9256,W,0.27,342.65,261116,,,A*7F
$GPGGA,203521.000,3903.1207,N,09424.9253,W,1,08,1.07,283.8,M,-30.5,M,,*56
$GPRMC,203521.000,A,3903.1207,N,09424.9253,W,0.29,342.65,261116,,,A*7E
$GPGGA,203526.000,3903.1209,N,09424.9257,W,1,08,1.07,283.9,M,-30.5,M,,*5A
$GPRMC,203526.000,A,3903.1209,N,09424.9257,W,0.21,342.65,261116,,,A*7B
$GPGGA,203531.000,3903.1212,N,09424.9256,W,1,09,0.99,284.0,M,-30.5,M,,*5E
$GPRMC,203531.000,A,3903.1212,N,09424.9256,W,0.96,28.98,261116,,,A*47
$GPGGA,203536.000,3903.1183,N,09424.9218,W,1,09,0.99,284.2,M,-30.5,M,,*5A
$GPRMC,203536.000,A,3903.1183,N,09424.9218,W,1.90,162.01,261116,,,A*79
$GPGGA,203541.000,3903.1143,N,09424.9129,W,1,09,0.99,283.9,M,-30.5,M,,*5B
$GPRMC,203541.000,A,3903.1143,N,09424.9129,W,6.06,112.24,261116,,,A*7C
$GPGGA,203546.000,3903.1109,N,09424.9031,W,1,09,0.99,283.7,M,-30.5,M,,*54
$GPRMC,203546.000,A,3903.1109,N,09424.9031,W,4.95,116.13,261116,,,A*75
$GPGGA,203551.000,3903.0914,N,09424.8984,W,1,09,0.99,282.5,M,-30.5,M,,*52
$GPRMC,203551.000,A,3903.0914,N,09424.8984,W,10.78,189.14,261116,,,A*47
$GPGGA,203556.000,3903.0673,N,09424.9033,W,1,09,0.99,282.8,M,-30.5,M,,*52
$GPRMC,203556.000,A,3903.0673,N,09424.9033,W,16.61,191.67,261116,,,A*49
$GPGGA,203601.000,3903.0428,N,09424.9037,W,1,09,0.99,284.2,M,-30.5,M,,*57
$GPRMC,203601.000,A,3903.0428,N,09424.9037,W,13.69,183.18,261116,,,A*46
$GPGGA,203606.000,3903.0211,N,09424.9014,W,1,08,1.07,282.6,M,-30.5,M,,*58
$GPRMC,203606.000,A,3903.0211,N,09424.9014,W,0.43,183.18,261116,,,A*76
$GPGGA,203611.000,3903.0199,N,09424.9010,W,1,08,1.07,282.9,M,-30.5,M,,*56
$GPRMC,203611.000,A,3903.0199,N,09424.9010,W,0.66,174.56,261116,,,A*72
$GPGGA,203616.000,3903.0186,N,09424.9015,W,1,08,1.07,283.0,M,-30.5,M,,*52
$GPRMC,203616.000,A,3903.0186,N,09424.9015,W,0.60,174.56,261116,,,A*78
$GPGGA,203621.000,3903.0185,N,09424.9010,W,1,09,0.99,282.8,M,-30.5,M,,*5E
$GPRMC,203621.000,A,3903.0185,N,09424.9010,W,0.38,174.56,261116,,,A*77
$GPGGA,203626.000,3903.0183,N,09424.9010,W,1,09,0.99,282.9,M,-30.5,M,,*5E
$GPRMC,203626.000,A,3903.0183,N,09424.9010,W,0.13,174.56,261116,,,A*7F
$GPGGA,203631.000,3903.0174,N,09424.9004,W,1,09,0.99,283.1,M,-30.5,M,,*5C
$GPRMC,203631.000,A,3903.0174,N,09424.9004,W,0.35,174.56,261116,,,A*70
$GPGGA,203636.000,3903.0169,N,09424.9002,W,1,09,0.99,283.2,M,-30.5,M,,*52
$GPRMC,203636.000,A,3903.0169,N,09424.9002,W,0.33,174.56,261116,,,A*7B
$GPGGA,203641.000,3903.0165,N,09424.9000,W,1,08,1.07,283.3,M,-30.5,M,,*5A
$GPRMC,203641.000,A,3903.0165,N,09424.9000,W,0.10,174.56,261116,,,A*74
$GPGGA,203646.000,3903.0166,N,09424.8999,W,1,09,0.99,283.3,M,-30.5,M,,*51
$GPRMC,203646.000,A,3903.0166,N,09424.8999,W,0.40,174.56,261116,,,A*7D
$GPGGA,203651.000,3903.0166,N,09424.8993,W,1,09,0.99,283.4,M,-30.5,M,,*5A
$GPRMC,203651.000,A,3903.0166,N,09424.8993,W,0.19,174.56,261116,,,A*7D
$GPGGA,203656.000,3903.0168,N,09424.8991,W,1,09,0.99,283.5,M,-30.5,M,,*50
$GPRMC,203656.000,A,3903.0168,N,09424.8991,W,0.34,174.56,261116,,,A*79
$GPGGA,203701.000,3903.0163,N,09424.8988,W,1,08,1.07,283.7,M,-30.5,M,,*55
$GPRMC,203701.000,A,3903.0163,N,09424.8988,W,10.47,106.46,261116,,,A*48
$GPGGA,203706.000,3903.0113,N,09424.8524,W,1,08,1.12,283.9,M,-30.5,M,,*55
$GPRMC,203706.000,A,3903.0113,N,09424.8524,W,26.22,90.47,261116,,,A*7B
$GPGGA,203711.000,3903.0124,N,09424.8016,W,1,08,1.07,284.7,M,-30.5,M,,*5E
$GPRMC,203711.000,A,3903.0124,N,09424.8016,W,28.33,87.88,261116,,,A*76
$GPGGA,203716.000,3903.0092,N,09424.7489,W,1,08,1.07,287.3,M,-30.5,M,,*5F
$GPRMC,203716.000,A,3903.0092,N,09424.7489,W,29.22,96.19,261116,,,A*79
$GPGGA,203721.000,3903.0015,N,09424.6943,W,1,08,1.07,289.1,M,-30.5,M,,*52
$GPRMC,203721.000,A,3903.0015,N,09424.6943,W,29.43,95.20,261116,,,A*76
$GPGGA,203726.000,3902.9970,N,09424.6398,W,1,08,1.07,288.9,M,-30.5,M,,*52
$GPRMC,203726.000,A,3902.9970,N,09424.6398,W,29.72,90.55,261116,,,A*7A
$GPGGA,203731.000,3902.9948,N,09424.5858,W,1,07,1.26,288.2,M,-30.5,M,,*5C
$GPRMC,203731.000,A,3902.9948,N,09424.5858,W,29.66,92.85,261116,,,A*79
$GPGGA,203736.000,3902.9917,N,09424.5322,W,1,06,1.36,288.7,M,-30.5,M,,*52
$GPRMC,203736.000,A,3902.9917,N,09424.5322,W,29.30,92.71,261116,,,A*7A
$GPGGA,203741.000,3902.9887,N,09424.4833,W,1,08,1.07,288.0,M,-30.5,M,,*5B
$GPRMC,203741.000,A,3902.9887,N,09424.4833,W,24.93,93.00,261116,,,A*7B
$GPGGA,203746.000,3902.9860,N,09424.4377,W,1,08,1.07,286.2,M,-30.5,M,,*52
$GPRMC,203746.000,A,3902.9860,N,09424.4377,W,25.66,93.30,261116,,,A*76
$GPGGA,203751.000,3902.9829,N,09424.3896,W,1,08,1.07,285.0,M,-30.5,M,,*5B
$GPRMC,203751.000,A,3902.9829,N,09424.3896,W,27.02,94.08,261116,,,A*72
$GPGGA,203756.000,3902.9807,N,09424.3568,W,1,08,1.07,284.0,M,-30.5,M,,*5D
$GPRMC,203756.000,A,3902.9807,N,09424.3568,W,8.88,94.28,261116,,,A*48
$GPGGA,203801.000,3902.9741,N,09424.3429,W,1,08,1.07,283.0,M,-30.5,M,,*5E
$GPRMC,203801.000,A,3902.9741,N,09424.3429,W,12.66,143.67,261116,,,A*47
$GPGGA,203806.000,3902.9505,N,09424.3373,W,1,07,1.11,280.8,M,-30.5,M,,*50
$GPRMC,203806.000,A,3902.9505,N,09424.3373,W,22.83,178.11,261116,,,A*4B
$GPGGA,203811.000,3902.9166,N,09424.3391,W,1,08,1.07,280.5,M,-30.5,M,,*5E
$GPRMC,203811.000,A,3902.9166,N,09424.3391,W,25.71,183.60,261116,,,A*48
$GPGGA,203816.000,3902.8784,N,09424.3429,W,1,08,1.07,280.3,M,-30.5,M,,*50
$GPRMC,203816.000,A,3902.8784,N,09424.3429,W,27.66,180.86,261116,,,A*4F
$GPGGA,203821.000,3902.8369,N,09424.3466,W,1,08,1.07,278.7,M,-30.5,M,,*5B
$GPRMC,203821.000,A,3902.8369,N,09424.3466,W,30.95,182.03,261116,,,A*42
$GPGGA,203826.000,3902.7943,N,09424.3418,W,1,08,1.11,277.3,M,-30.5,M,,*54
$GPRMC,203826.000,A,3902.7943,N,09424.3418,W,31.39,165.95,261116,,,A*40
$GPGGA,203831.001,3902.7531,N,09424.3247,W,1,07,1.11,276.6,M,-30.5,M,,*5D
$GPRMC,203831.001,A,3902.7531,N,09424.3247,W,31.04,158.39,261116,,,A*44
$GPGGA,203836.000,3902.7134,N,09424.3037,W,1,07,1.11,275.9,M,-30.5,M,,*53
$GPRMC,203836.000,A,3902.7134,N,09424.3037,W,30.31,157.34,261116,,,A*43
$GPGGA,203841.000,3902.6773,N,09424.2835,W,1,08,1.07,275.1,M,-30.5,M,,*5C
$GPRMC,203841.000,A,3902.6773,N,09424.2835,W,31.63,155.30,261116,,,A*4C
$GPGGA,203846.000,3902.6462,N,09424.2602,W,1,08,1.07,274.5,M,-30.5,M,,*57
$GPRMC,203846.000,A,3902.6462,N,09424.2602,W,24.96,144.90,261116,,,A*46
$GPGGA,203851.000,3902.6172,N,09424.2307,W,1,08,1.07,273.8,M,-30.5,M,,*5F
$GPRMC,203851.000,A,3902.6172,N,09424.2307,W,28.20,138.79,261116,,,A*49
$GPGGA,203856.000,3902.5882,N,09424.1975,W,1,08,1.07,274.8,M,-30.5,M,,*56
$GPRMC,203856.000,A,3902.5882,N,09424.1975,W,27.44,138.82,261116,,,A*4E
$GPGGA,203901.000,3902.5600,N,09424.1645,W,1,08,1.07,274.5,M,-30.5,M,,*50
$GPRMC,203901.000,A,3902.5600,N,09424.1645,W,27.79,135.88,261116,,,A*4C
$GPGGA,203906.000,3902.5333,N,09424.1287,W,1,08,1.07,271.3,M,-30.6,M,,*58
$GPRMC,203906.000,A,3902.5333,N,09424.1287,W,29.44,133.59,261116,,,A*4E
$GPGGA,203911.000,3902.4988,N,09424.0957,W,1,08,1.11,269.3,M,-30.6,M,,*5C
$GPRMC,203911.000,A,3902.4988,N,09424.0957,W,31.36,154.37,261116,,,A*41
$GPGGA,203916.000,3902.4600,N,09424.0840,W,1,08,1.07,269.5,M,-30.6,M,,*52
$GPRMC,203916.000,A,3902.4600,N,09424.0840,W,27.87,180.37,261116,,,A*4A
$GPGGA,203921.000,3902.4219,N,09424.0847,W,1,08,1.07,269.7,M,-30.6,M,,*5F
$GPRMC,203921.000,A,3902.4219,N,09424.0847,W,26.83,181.97,261116,,,A*4B
$GPGGA,203926.000,3902.3841,N,09424.0863,W,1,08,1.07,269.4,M,-30.6,M,,*5D
$GPRMC,203926.000,A,3902.3841,N,09424.0863,W,26.90,181.91,261116,,,A*4E
$GPGGA,203931.000,3902.3458,N,09424.0891,W,1,08,1.11,264.8,M,-30.5,M,,*57
$GPRMC,203931.000,A,3902.3458,N,09424.0891,W,28.33,183.94,261116,,,A*41
$GPGGA,203936.000,3902.3084,N,09424.0917,W,1,08,1.07,262.0,M,-30.5,M,,*53
$GPRMC,203936.000,A,3902.3084,N,09424.0917,W,25.28,182.05,261116,,,A*42
$GPGGA,203941.000,3902.2784,N,09424.0935,W,1,08,1.11,260.1,M,-30.5,M,,*51
$GPRMC,203941.000,A,3902.2784,N,09424.0935,W,17.72,183.82,261116,,,A*44
$GPGGA,203946.000,3902.2624,N,09424.0943,W,1,08,1.07,260.1,M,-30.5,M,,*5B
$GPRMC,203946.000,A,3902.2624,N,09424.0943,W,5.58,180.44,261116,,,A*7B
$GPGGA,203951.000,3902.2522,N,09424.0950,W,1,08,1.07,260.3,M,-30.5,M,,*58
$GPRMC,203951.000,A,3902.2522,N,09424.0950,W,10.27,184.40,261116,,,A*46
$GPGGA,203956.000,3902.2289,N,09424.0962,W,1,08,1.11,258.9,M,-30.5,M,,*5E
$GPRMC,203956.000,A,3902.2289,N,09424.0962,W,21.62,183.40,261116,,,A*42
$GPGGA,204001.000,3902.1963,N,09424.0964,W,1,08,1.07,258.4,M,-30.5,M,,*52
$GPRMC,204001.000,A,3902.1963,N,09424.0964,W,24.12,177.78,261116,,,A*46
$GPGGA,204006.000,3902.1663,N,09424.0824,W,1,07,1.11,256.3,M,-30.5,M,,*5E
$GPRMC,204006.000,A,3902.1663,N,09424.0824,W,24.33,140.45,261116,,,A*42
$GPGGA,204011.000,3902.1409,N,09424.0542,W,1,08,1.11,256.9,M,-30.5,M,,*5E
$GPRMC,204011.000,A,3902.1409,N,09424.0542,W,22.87,140.28,261116,,,A*45
$GPGGA,204016.000,3902.1206,N,09424.0385,W,1,08,1.11,260.1,M,-30.5,M,,*50
$GPRMC,204016.000,A,3902.1206,N,09424.0385,W,11.06,168.77,261116,,,A*4F
$GPGGA,204021.000,3902.1129,N,09424.0365,W,1,08,1.11,262.5,M,-30.5,M,,*52
$GPRMC,204021.000,A,3902.1129,N,09424.0365,W,0.01,168.77,261116,,,A*7C
$GPGGA,204026.000,3902.1127,N,09424.0363,W,1,08,1.07,263.2,M,-30.5,M,,*5C
$GPRMC,204026.000,A,3902.1127,N,09424.0363,W,0.01,168.77,261116,,,A*73
$GPGGA,204031.000,3902.1122,N,09424.0364,W,1,08,1.07,263.4,M,-30.5,M,,*5E
$GPRMC,204031.000,A,3902.1122,N,09424.0364,W,0.04,168.77,261116,,,A*72
$GPGGA,204036.000,3902.1110,N,09424.0366,W,1,08,1.07,263.8,M,-30.5,M,,*56
$GPRMC,204036.000,A,3902.1110,N,09424.0366,W,0.26,168.77,261116,,,A*76
$GPGGA,204041.000,3902.1068,N,09424.0155,W,1,08,1.07,264.1,M,-30.6,M,,*57
$GPRMC,204041.000,A,3902.1068,N,09424.0155,W,20.52,89.83,261116,,,A*7E
$GPGGA,204046.000,3902.1022,N,09423.9607,W,1,08,1.07,266.0,M,-30.6,M,,*53
$GPRMC,204046.000,A,3902.1022,N,09423.9607,W,35.68,91.70,261116,,,A*71
$GPGGA,204051.000,3902.0984,N,09423.8941,W,1,08,1.07,265.5,M,-30.6,M,,*5B
$GPRMC,204051.000,A,3902.0984,N,09423.8941,W,38.55,93.35,261116,,,A*7F
$GPGGA,204056.000,3902.0950,N,09423.8262,W,1,08,1.07,264.4,M,-30.6,M,,*5F
$GPRMC,204056.000,A,3902.0950,N,09423.8262,W,37.52,93.10,261116,,,A*74
$GPGGA,204101.000,3902.0926,N,09423.7644,W,1,08,1.07,265.0,M,-30.6,M,,*57
$GPRMC,204101.000,A,3902.0926,N,09423.7644,W,31.52,90.10,261116,,,A*7C
$GPGGA,204106.000,3902.0895,N,09423.7200,W,1,07,1.11,266.4,M,-30.6,M,,*52
$GPRMC,204106.000,A,3902.0895,N,09423.7200,W,17.11,96.54,261116,,,A*73
$GPGGA,204111.000,3902.0953,N,09423.7041,W,1,08,1.07,266.2,M,-30.6,M,,*56
$GPRMC,204111.000,A,3902.0953,N,09423.7041,W,9.70,9.69,261116,,,A*79
$GPGGA,204116.000,3902.1067,N,09423.6977,W,1,08,1.11,265.2,M,-30.6,M,,*57
$GPRMC,204116.000,A,3902.1067,N,09423.6977,W,8.94,30.87,261116,,,A*4D
$GPGGA,204121.000,3902.1178,N,09423.6907,W,1,08,1.07,264.2,M,-30.6,M,,*5D
$GPRMC,204121.000,A,3902.1178,N,09423.6907,W,6.65,40.75,261116,,,A*4B
$GPGGA,204126.000,3902.1212,N,09423.6867,W,1,08,1.07,263.7,M,-30.6,M,,*50
$GPRMC,204126.000,A,3902.1212,N,09423.6867,W,0.05,40.75,261116,,,A*44
$GPGGA,204131.000,3902.1215,N,09423.6861,W,1,08,1.10,262.9,M,-30.6,M,,*5E
$GPRMC,204131.000,A,3902.1215,N,09423.6861,W,0.01,40.75,261116,,,A*47
$GPGGA,204136.000,3902.1220,N,09423.6852,W,1,08,1.06,262.7,M,-30.6,M,,*56
$GPRMC,204136.000,A,3902.1220,N,09423.6852,W,0.02,40.75,261116,,,A*45
$GPGGA,204141.000,3902.1214,N,09423.6845,W,1,08,1.10,262.8,M,-30.6,M,,*5F
$GPRMC,204141.000,A,3902.1214,N,09423.6845,W,0.02,40.75,261116,,,A*44
$GPGGA,204146.000,3902.1217,N,09423.6843,W,1,08,1.06,263.2,M,-30.6,M,,*51
$GPRMC,204146.000,A,3902.1217,N,09423.6843,W,0.02,40.75,261116,,,A*46
$GPGGA,204151.000,3902.1215,N,09423.6841,W,1,08,1.06,263.7,M,-30.6,M,,*52
$GPRMC,204151.000,A,3902.1215,N,09423.6841,W,0.00,40.75,261116,,,A*42
$GPGGA,204156.000,3902.1215,N,09423.6841,W,1,08,1.10,263.7,M,-30.6,M,,*52
$GPRMC,204156.000,A,3902.1215,N,09423.6841,W,0.00,40.75,261116,,,A*45
$GPGGA,204201.000,3902.1218,N,09423.6849,W,1,08,1.06,263.9,M,-30.6,M,,*5F
$GPRMC,204201.000,A,3902.1218,N,09423.6849,W,0.00,40.75,261116,,,A*41
$GPGGA,204206.000,3902.1218,N,09423.6849,W,1,08,1.10,263.9,M,-30.6,M,,*5F
$GPRMC,204206.000,A,3902.1218,N,09423.6849,W,0.00,40.75,261116,,,A*46
$GPGGA,204211.000,3902.1218,N,09423.6849,W,1,08,1.10,263.9,M,-30.6,M,,*59
$GPRMC,204211.000,A,3902.1218,N,09423.6849,W,0.00,40.75,261116,,,A*40
$GPGGA,204216.000,3902.1217,N,09423.6856,W,1,08,1.06,264.2,M,-30.6,M,,*54
$GPRMC,204216.000,A,3902.1217,N,09423.6856,W,0.00,40.75,261116,,,A*46
$GPGGA,204221.000,3902.1218,N,09423.6856,W,1,08,1.10,264.2,M,-30.6,M,,*58
$GPRMC,204221.000,A,3902.1218,N,09423.6856,W,0.00,40.75,261116,,,A*4D
$GPGGA,204226.000,3902.1217,N,09423.6862,W,1,08,1.06,264.0,M,-30.6,M,,*52
$GPRMC,204226.000,A,3902.1217,N,09423.6862,W,0.03,40.75,261116,,,A*41
$GPGGA,204231.000,3902.1220,N,09423.6866,W,1,08,1.06,264.0,M,-30.6,M,,*54
$GPRMC,204231.000,A,3902.1220,N,09423.6866,W,0.00,40.75,261116,,,A*44
$GPGGA,204236.000,3902.1220,N,09423.6866,W,1,08,1.10,264.0,M,-30.6,M,,*54
$GPRMC,204236.000,A,3902.1220,N,09423.6866,W,0.00,40.75,261116,,,A*43
$GPGGA,204241.000,3902.1220,N,09423.6866,W,1,08,1.10,264.0,M,-30.6,M,,*54
$GPRMC,204241.000,A,3902.1220,N,09423.6866,W,0.00,40.75,261116,,,A*43
$GPGGA,204246.000,3902.1219,N,09423.6869,W,1,07,1.24,263.7,M,-30.6,M,,*5E
$GPRMC,204246.000,A,3902.1219,N,09423.6869,W,0.02,40.75,261116,,,A*43
$GPGGA,204251.000,3902.1221,N,09423.6866,W,1,07,1.24,263.7,M,-30.6,M,,*5C
$GPRMC,204251.000,A,3902.1221,N,09423.6866,W,0.00,40.75,261116,,,A*43
$GPGGA,204256.000,3902.1221,N,09423.6866,W,1,07,1.31,263.7,M,-30.6,M,,*5F
$GPRMC,204256.000,A,3902.1221,N,09423.6866,W,0.00,40.75,261116,,,A*44
$GPGGA,204301.000,3902.1221,N,09423.6866,W,1,07,1.31,263.7,M,-30.6,M,,*5C
$GPRMC,204301.000,A,3902.1221,N,09423.6866,W,0.00,40.75,261116,,,A*47
$GPGGA,204306.000,3902.1221,N,09423.6866,W,1,07,1.31,263.7,M,-30.6,M,,*5B
$GPRMC,204306.000,A,3902.1221,N,09423.6866,W,0.00,40.75,261116,,,A*40
$GPGGA,204311.000,3902.1225,N,09423.6872,W,1,07,1.24,263.8,M,-30.6,M,,*57
$GPRMC,204311.000,A,3902.1225,N,09423.6872,W,0.03,40.75,261116,,,A*44
$GPGGA,204316.000,3902.1228,N,09423.6876,W,1,07,1.24,263.7,M,-30.6,M,,*56
$GPRMC,204316.000,A,3902.1228,N,09423.6876,W,0.01,40.75,261116,,,A*48
$GPGGA,204321.000,3902.1229,N,09423.6875,W,1,07,1.24,263.9,M,-30.6,M,,*5E
$GPRMC,204321.000,A,3902.1229,N,09423.6875,W,0.00,40.75,261116,,,A*4F
$GPGGA,204326.000,3902.1229,N,09423.6875,W,1,07,1.31,263.9,M,-30.6,M,,*5D
$GPRMC,204326.000,A,3902.1229,N,09423.6875,W,0.00,40.75,261116,,,A*48
$GPGGA,204331.000,3902.1229,N,09423.6875,W,1,07,1.31,263.9,M,-30.6,M,,*5B
$GPRMC,204331.000,A,3902.1229,N,09423.6875,W,0.00,40.75,261116,,,A*4E
$GPGGA,204336.000,3902.1229,N,09423.6874,W,1,07,1.24,263.9,M,-30.6,M,,*59
$GPRMC,204336.000,A,3902.1229,N,09423.6874,W,0.15,40.75,261116,,,A*4C
$GPGGA,204341.000,3902.1231,N,09423.6874,W,1,07,1.31,263.9,M,-30.6,M,,*54
$GPRMC,204341.000,A,3902.1231,N,09423.6874,W,0.29,40.75,261116,,,A*4A
$GPGGA,204346.000,3902.1235,N,09423.6874,W,1,07,1.31,264.0,M,-30.6,M,,*59
$GPRMC,204346.000,A,3902.1235,N,09423.6874,W,0.05,40.75,261116,,,A*47
$GPGGA,204351.000,3902.1235,N,09423.6874,W,1,07,1.30,264.2,M,-30.6,M,,*5C
$GPRMC,204351.000,A,3902.1235,N,09423.6874,W,0.49,40.75,261116,,,A*49
$GPGGA,204356.000,3902.1229,N,09423.6869,W,1,08,1.06,264.6,M,-30.6,M,,*54
$GPRMC,204356.000,A,3902.1229,N,09423.6869,W,0.47,40.75,261116,,,A*41
$GPGGA,204401.000,3902.1222,N,09423.6866,W,1,08,1.06,264.9,M,-30.6,M,,*5A
$GPRMC,204401.000,A,3902.1222,N,09423.6866,W,0.27,40.75,261116,,,A*46
$GPGGA,204406.000,3902.1222,N,09423.6870,W,1,08,1.06,265.1,M,-30.6,M,,*53
$GPRMC,204406.000,A,3902.1222,N,09423.6870,W,0.11,40.75,261116,,,A*43
$GPGGA,204411.000,3902.1223,N,09423.6871,W,1,08,1.06,265.3,M,-30.6,M,,*57
$GPRMC,204411.000,A,3902.1223,N,09423.6871,W,0.00,40.75,261116,,,A*45
$GPGGA,204416.000,3902.1223,N,09423.6871,W,1,08,1.10,265.3,M,-30.6,M,,*57
$GPRMC,204416.000,A,3902.1223,N,09423.6871,W,0.00,40.75,261116,,,A*42
$GPGGA,204421.000,3902.1223,N,09423.6871,W,1,08,1.10,265.3,M,-30.6,M,,*53
$GPRMC,204421.000,A,3902.1223,N,09423.6871,W,0.00,40.75,261116,,,A*46
$GPGGA,204426.000,3902.1223,N,09423.6871,W,1,07,1.30,265.3,M,-30.6,M,,*59
$GPRMC,204426.000,A,3902.1223,N,09423.6871,W,0.00,40.75,261116,,,A*41
$GPGGA,204431.000,3902.1223,N,09423.6871,W,1,07,1.30,265.3,M,-30.6,M,,*5F
$GPRMC,204431.000,A,3902.1223,N,09423.6871,W,0.00,40.75,261116,,,A*47
$GPGGA,204436.000,3902.1223,N,09423.6871,W,1,07,1.30,265.3,M,-30.6,M,,*58
$GPRMC,204436.000,A,3902.1223,N,09423.6871,W,0.00,40.75,261116,,,A*40
$GPGGA,204441.000,3902.1223,N,09423.6871,W,1,07,1.30,265.3,M,-30.6,M,,*58
$GPRMC,204441.000,A,3902.1223,N,09423.6871,W,0.00,40.75,261116,,,A*40
$GPGGA,204446.000,3902.1223,N,09423.6871,W,1,07,1.30,265.3,M,-30.6,M,,*5F
$GPRMC,204446.000,A,3902.1223,N,09423.6871,W,0.00,40.75,261116,,,A*47
$GPGGA,204451.000,3902.1223,N,09423.6871,W,1,07,1.30,265.3,M,-30.6,M,,*59
$GPRMC,204451.000,A,3902.1223,N,09423.6871,W,0.00,40.75,261116,,,A*41
$GPGGA,204456.000,3902.1223,N,09423.6871,W,1,07,1.30,265.3,M,-30.6,M,,*5E
$GPRMC,204456.000,A,3902.1223,N,09423.6871,W,0.00,40.75,261116,,,A*46
$GPGGA,204501.000,3902.1223,N,09423.6871,W,1,07,1.30,265.3,M,-30.6,M,,*5D
$GPRMC,204501.000,A,3902.1223,N,09423.6871,W,0.00,40.75,261116,,,A*45
$GPGGA,204506.000,3902.1223,N,09423.6871,W,1,08,1.10,265.3,M,-30.6,M,,*57
$GPRMC,204506.000,A,3902.1223,N,09423.6871,W,0.00,40.75,261116,,,A*42
$GPGGA,204511.000,3902.1223,N,09423.6871,W,1,08,1.10,265.3,M,-30.6,M,,*51
$GPRMC,204511.000,A,3902.1223,N,09423.6871,W,0.00,40.75,261116,,,A*44
$GPGGA,204516.000,3902.1223,N,09423.6871,W,1,08,1.10,265.3,M,-30.6,M,,*56
$GPRMC,204516.000,A,3902.1223,N,09423.6871,W,0.00,40.75,261116,,,A*43
$GPGGA,204521.000,3902.1223,N,09423.6871,W,1,08,1.10,265.3,M,-30.6,M,,*52
$GPRMC,204521.000,A,3902.1223,N,09423.6871,W,0.00,40.75,261116,,,A*47
$GPGGA,204526.000,3902.1223,N,09423.6871,W,1,08,1.10,265.3,M,-30.6,M,,*55
$GPRMC,204526.000,A,3902.1223,N,09423.6871,W,0.00,40.75,261116,,,A*40
$GPGGA,204531.000,3902.1223,N,09423.6871,W,1,08,1.10,265.3,M,-30.6,M,,*53
$GPRMC,204531.000,A,3902.1223,N,09423.6871,W,0.00,40.75,261116,,,A*46
$GPGGA,204536.000,3902.1223,N,09423.6871,W,1,08,1.10,265.3,M,-30.6,M,,*54
$GPRMC,204536.000,A,3902.1223,N,09423.6871,W,0.00,40.75,261116,,,A*41
$GPGGA,204541.000,3902.1223,N,09423.6871,W,1,08,1.10,265.3,M,-30.6,M,,*54
$GPRMC,204541.000,A,3902.1223,N,09423.6871,W,0.00,40.75,261116,,,A*41
$GPGGA,204546.000,3902.1223,N,09423.6871,W,1,08,1.10,265.3,M,-30.6,M,,*53
$GPRMC,204546.000,A,3902.1223,N,09423.6871,W,0.00,40.75,261116,,,A*46
$GPGGA,204551.000,3902.1223,N,09423.6871,W,1,08,1.10,265.3,M,-30.6,M,,*55
$GPRMC,204551.000,A,3902.1223,N,09423.6871,W,0.00,40.75,261116,,,A*40
$GPGGA,204556.000,3902.1223,N,09423.6871,W,1,08,1.10,265.3,M,-30.6,M,,*52
$GPRMC,204556.000,A,3902.1223,N,09423.6871,W,0.00,40.75,261116,,,A*47
$GPGGA,204601.000,3902.1223,N,09423.6871,W,1,08,1.10,265.3,M,-30.6,M,,*53
$GPRMC,204601.000,A,3902.1223,N,09423.6871,W,0.00,40.75,261116,,,A*46
$GPGGA,204606.000,3902.1223,N,09423.6871,W,1,08,1.10,265.3,M,-30.6,M,,*54
$GPRMC,204606.000,A,3902.1223,N,09423.6871,W,0.00,40.75,261116,,,A*41
$GPGGA,204611.000,3902.1223,N,09423.6871,W,1,08,1.09,265.3,M,-30.6,M,,*5A
$GPRMC,204611.000,A,3902.1223,N,09423.6871,W,0.00,40.75,261116,,,A*47
$GPGGA,204616.000,3902.1223,N,09423.6871,W,1,08,1.09,265.3,M,-30.6,M,,*5D
$GPRMC,204616.000,A,3902.1223,N,09423.6871,W,0.00,40.75,261116,,,A*40
$GPGGA,204621.000,3902.1223,N,09423.6871,W,1,08,1.09,265.3,M,-30.6,M,,*59
$GPRMC,204621.000,A,3902.1223,N,09423.6871,W,0.00,40.75,261116,,,A*44
$GPGGA,204626.000,3902.1223,N,09423.6871,W,1,08,1.09,265.3,M,-30.6,M,,*5E
$GPRMC,204626.000,A,3902.1223,N,09423.6871,W,0.00,40.75,261116,,,A*43
$GPGGA,204631.000,3902.1223,N,09423.6871,W,1,08,1.09,265.3,M,-30.6,M,,*58
$GPRMC,204631.000,A,3902.1223,N,09423.6871,W,0.00,40.75,261116,,,A*45
$GPGGA,204636.000,3902.1223,N,09423.6871,W,1,08,1.09,265.3,M,-30.6,M,,*5F
$GPRMC,204636.000,A,3902.1223,N,09423.6871,W,0.00,40.75,261116,,,A*42
$GPGGA,204641.000,3902.1223,N,09423.6871,W,1,08,1.09,265.2,M,-30.6,M,,*5E
$GPRMC,204641.000,A,3902.1223,N,09423.6871,W,0.00,40.75,261116,,,A*42
$GPGGA,204646.000,3902.1227,N,09423.6872,W,1,08,1.09,265.3,M,-30.6,M,,*5F
$GPRMC,204646.000,A,3902.1227,N,09423.6872,W,0.00,40.75,261116,,,A*42
$GPGGA,204651.000,3902.1227,N,09423.6872,W,1,08,1.09,265.3,M,-30.6,M,,*59
$GPRMC,204651.000,A,3902.1227,N,09423.6872,W,0.00,40.75,261116,,,A*44
$GPGGA,204656.000,3902.1227,N,09423.6872,W,1,07,1.29,265.3,M,-30.6,M,,*53
$GPRMC,204656.000,A,3902.1227,N,09423.6872,W,0.00,40.75,261116,,,A*43
$GPGGA,204701.000,3902.1227,N,09423.6872,W,1,08,1.09,265.3,M,-30.6,M,,*5D
$GPRMC,204701.000,A,3902.1227,N,09423.6872,W,0.00,40.75,261116,,,A*40
$GPGGA,204706.000,3902.1227,N,09423.6872,W,1,08,1.09,265.3,M,-30.6,M,,*5A
$GPRMC,204706.000,A,3902.1227,N,09423.6872,W,0.00,40.75,261116,,,A*47
$GPGGA,204711.000,3902.1227,N,09423.6872,W,1,08,1.09,265.3,M,-30.6,M,,*5C
$GPRMC,204711.000,A,3902.1227,N,09423.6872,W,0.00,40.75,261116,,,A*41
$GPGGA,204716.000,3902.1227,N,09423.6872,W,1,08,1.09,265.3,M,-30.6,M,,*5B
$GPRMC,204716.000,A,3902.1227,N,09423.6872,W,0.00,40.75,261116,,,A*46
$GPGGA,204721.000,3902.1227,N,09423.6872,W,1,08,1.09,265.3,M,-30.6,M,,*5F
$GPRMC,204721.000,A,3902.1227,N,09423.6872,W,0.00,40.75,261116,,,A*42
$GPGGA,204726.000,3902.1227,N,09423.6872,W,1,08,1.09,265.3,M,-30.6,M,,*58
$GPRMC,204726.000,A,3902.1227,N,09423.6872,W,0.00,40.75,261116,,,A*45
$GPGGA,204731.000,3902.1227,N,09423.6872,W,1,08,1.09,265.3,M,-30.6,M,,*5E
$GPRMC,204731.000,A,3902.1227,N,09423.6872,W,0.00,40.75,261116,,,A*43
$GPGGA,204736.000,3902.1227,N,09423.6872,W,1,08,1.09,265.3,M,-30.6,M,,*59
$GPRMC,204736.000,A,3902.1227,N,09423.6872,W,0.00,40.75,261116,,,A*44
$GPGGA,204741.000,3902.1227,N,09423.6872,W,1,08,1.09,265.3,M,-30.6,M,,*59
$GPRMC,204741.000,A,3902.1227,N,09423.6872,W,0.00,40.75,261116,,,A*44
$GPGGA,204746.000,3902.1227,N,09423.6872,W,1,08,1.09,265.3,M,-30.6,M,,*5E
$GPRMC,204746.000,A,3902.1227,N,09423.6872,W,0.00,40.75,261116,,,A*43
$GPGGA,204751.000,3902.1227,N,09423.6872,W,1,08,1.09,265.3,M,-30.6,M,,*58
$GPRMC,204751.000,A,3902.1227,N,09423.6872,W,0.00,40.75,261116,,,A*45
$GPGGA,204756.000,3902.1227,N,09423.6872,W,1,08,1.09,265.3,M,-30.6,M,,*5F
$GPRMC,204756.000,A,3902.1227,N,09423.6872,W,0.00,40.75,261116,,,A*42
$GPGGA,204801.000,3902.1227,N,09423.6872,W,1,08,1.09,265.3,M,-30.6,M,,*52
$GPRMC,204801.000,A,3902.1227,N,09423.6872,W,0.00,40.75,261116,,,A*4F
$GPGGA,204806.000,3902.1227,N,09423.6872,W,1,08,1.09,265.3,M,-30.6,M,,*55
$GPRMC,204806.000,A,3902.1227,N,09423.6872,W,0.00,40.75,261116,,,A*48
$GPGGA,204811.000,3902.1227,N,09423.6872,W,1,08,1.09,265.3,M,-30.6,M,,*53
$GPRMC,204811.000,A,3902.1227,N,09423.6872,W,0.00,40.75,261116,,,A*4E
$GPGGA,204816.000,3902.1227,N,09423.6872,W,1,08,1.09,265.3,M,-30.6,M,,*54
$GPRMC,204816.000,A,3902.1227,N,09423.6872,W,0.00,40.75,261116,,,A*49
$GPGGA,204821.000,3902.1227,N,09423.6872,W,1,08,1.09,265.3,M,-30.6,M,,*50
$GPRMC,204821.000,A,3902.1227,N,09423.6872,W,0.00,40.75,261116,,,A*4D
$GPGGA,204826.000,3902.1227,N,09423.6872,W,1,07,1.29,265.3,M,-30.6,M,,*5A
$GPRMC,204826.000,A,3902.1227,N,09423.6872,W,0.00,40.75,261116,,,A*4A
$GPGGA,204831.000,3902.1227,N,09423.6872,W,1,07,1.29,265.3,M,-30.6,M,,*5C
$GPRMC,204831.000,A,3902.1227,N,09423.6872,W,0.00,40.75,261116,,,A*4C
$GPGGA,204836.000,3902.1227,N,09423.6872,W,1,07,1.29,265.3,M,-30.6,M,,*5B
$GPRMC,204836.000,A,3902.1227,N,09423.6872,W,0.00,40.75,261116,,,A*4B
$GPGGA,204841.000,3902.1227,N,09423.6872,W,1,07,1.29,265.3,M,-30.6,M,,*5B
$GPRMC,204841.000,A,3902.1227,N,09423.6872,W,0.00,40.75,261116,,,A*4B
$GPGGA,204846.000,3902.1227,N,09423.6872,W,1,07,1.29,265.3,M,-30.6,M,,*5C
$GPRMC,204846.000,A,3902.1227,N,09423.6872,W,0.00,40.75,261116,,,A*4C
$GPGGA,204851.000,3902.1227,N,09423.6872,W,1,07,1.29,265.3,M,-30.6,M,,*5A
$GPRMC,204851.000,A,3902.1227,N,09423.6872,W,0.00,40.75,261116,,,A*4A
$GPGGA,204856.000,3902.1227,N,09423.6872,W,1,07,1.29,265.4,M,-30.6,M,,*5A
$GPRMC,204856.000,A,3902.1227,N,09423.6872,W,0.00,40.75,261116,,,A*4D
$GPGGA,204901.000,3902.1228,N,09423.6871,W,1,07,1.29,265.4,M,-30.6,M,,*55
$GPRMC,204901.000,A,3902.1228,N,09423.6871,W,0.00,40.75,261116,,,A*42
$GPGGA,204906.000,3902.1228,N,09423.6871,W,1,07,1.29,265.4,M,-30.6,M,,*52
$GPRMC,204906.000,A,3902.1228,N,09423.6871,W,0.00,40.75,261116,,,A*45
$GPGGA,204911.000,3902.1228,N,09423.6871,W,1,07,1.29,265.4,M,-30.6,M,,*54
$GPRMC,204911.000,A,3902.1228,N,09423.6871,W,0.00,40.75,261116,,,A*43
$GPGGA,204916.000,3902.1229,N,09423.6870,W,1,07,1.22,265.4,M,-30.6,M,,*58
$GPRMC,204916.000,A,3902.1229,N,09423.6870,W,0.00,40.75,261116,,,A*44
$GPGGA,204921.000,3902.1229,N,09423.6870,W,1,07,1.29,265.4,M,-30.6,M,,*57
$GPRMC,204921.000,A,3902.1229,N,09423.6870,W,0.00,40.75,261116,,,A*40
$GPGGA,204926.000,3902.1229,N,09423.6870,W,1,07,1.29,265.4,M,-30.6,M,,*50
$GPRMC,204926.000,A,3902.1229,N,09423.6870,W,0.00,40.75,261116,,,A*47
$GPGGA,204931.000,3902.1229,N,09423.6870,W,1,07,1.29,265.4,M,-30.6,M,,*56
$GPRMC,204931.000,A,3902.1229,N,09423.6870,W,0.00,40.75,261116,,,A*41
$GPGGA,204936.000,3902.1229,N,09423.6870,W,1,07,1.28,265.4,M,-30.6,M,,*50
$GPRMC,204936.000,A,3902.1229,N,09423.6870,W,0.00,40.75,261116,,,A*46
$GPGGA,204941.001,3902.1229,N,09423.6870,W,1,07,1.28,265.4,M,-30.6,M,,*51
$GPRMC,204941.001,A,3902.1229,N,09423.6870,W,0.00,40.75,261116,,,A*47
$GPGGA,204946.000,3902.1229,N,09423.6870,W,1,07,1.28,265.4,M,-30.6,M,,*57
$GPRMC,204946.000,A,3902.1229,N,09423.6870,W,0.00,40.75,261116,,,A*41
$GPGGA,204951.000,3902.1229,N,09423.6870,W,1,08,1.09,265.4,M,-30.6,M,,*5D
$GPRMC,204951.000,A,3902.1229,N,09423.6870,W,0.00,40.75,261116,,,A*47
$GPGGA,204956.000,3902.1229,N,09423.6870,W,1,08,1.09,265.4,M,-30.6,M,,*5A
$GPRMC,204956.000,A,3902.1229,N,09423.6870,W,0.00,40.75,261116,,,A*40
$GPGGA,205001.000,3902.1229,N,09423.6870,W,1,08,1.09,265.4,M,-30.6,M,,*50
$GPRMC,205001.000,A,3902.1229,N,09423.6870,W,0.00,40.75,261116,,,A*4A
$GPGGA,205006.000,3902.1229,N,09423.6870,W,1,07,1.28,265.4,M,-30.6,M,,*5B
$GPRMC,205006.000,A,3902.1229,N,09423.6870,W,0.00,40.75,261116,,,A*4D
$GPGGA,205011.000,3902.1229,N,09423.6870,W,1,07,1.28,265.4,M,-30.6,M,,*5D
$GPRMC,205011.000,A,3902.1229,N,09423.6870,W,0.00,40.75,261116,,,A*4B
$GPGGA,205016.000,3902.1229,N,09423.6870,W,1,07,1.28,265.4,M,-30.6,M,,*5A
$GPRMC,205016.000,A,3902.1229,N,09423.6870,W,0.00,40.75,261116,,,A*4C
$GPGGA,205021.000,3902.1229,N,09423.6870,W,1,07,1.28,265.4,M,-30.6,M,,*5E
$GPRMC,205021.000,A,3902.1229,N,09423.6870,W,0.00,40.75,261116,,,A*48
$GPGGA,205026.000,3902.1229,N,09423.6870,W,1,07,1.28,265.4,M,-30.6,M,,*59
$GPRMC,205026.000,A,3902.1229,N,09423.6870,W,0.00,40.75,261116,,,A*4F
$GPGGA,205031.000,3902.1229,N,09423.6870,W,1,07,1.28,265.4,M,-30.6,M,,*5F
$GPRMC,205031.000,A,3902.1229,N,09423.6870,W,0.00,40.75,261116,,,A*49
$GPGGA,205036.000,3902.1229,N,09423.6870,W,1,08,1.09,265.4,M,-30.6,M,,*54
$GPRMC,205036.000,A,3902.1229,N,09423.6870,W,0.00,40.75,261116,,,A*4E
$GPGGA,205041.000,3902.1229,N,09423.6870,W,1,08,1.09,265.4,M,-30.6,M,,*54
$GPRMC,205041.000,A,3902.1229,N,09423.6870,W,0.00,40.75,261116,,,A*4E
$GPGGA,205046.000,3902.1229,N,09423.6870,W,1,08,1.09,265.4,M,-30.6,M,,*53
$GPRMC,205046.000,A,3902.1229,N,09423.6870,W,0.00,40.75,261116,,,A*49
$GPGGA,205051.000,3902.1229,N,09423.6870,W,1,08,1.09,265.4,M,-30.6,M,,*55
$GPRMC,205051.000,A,3902.1229,N,09423.6870,W,0.00,40.75,261116,,,A*4F
$GPGGA,205056.000,3902.1229,N,09423.6870,W,1,08,1.09,265.4,M,-30.6,M,,*52
$GPRMC,205056.000,A,3902.1229,N,09423.6870,W,0.00,40.75,261116,,,A*48
$GPGGA,205101.000,3902.1229,N,09423.6870,W,1,07,1.28,265.4,M,-30.6,M,,*5D
$GPRMC,205101.000,A,3902.1229,N,09423.6870,W,0.00,40.75,261116,,,A*4B
$GPGGA,205106.000,3902.1229,N,09423.6870,W,1,07,1.28,265.4,M,-30.6,M,,*5A
$GPRMC,205106.000,A,3902.1229,N,09423.6870,W,0.00,40.75,261116,,,A*4C
$GPGGA,205111.000,3902.1229,N,09423.6870,W,1,07,1.28,265.4,M,-30.6,M,,*5C
$GPRMC,205111.000,A,3902.1229,N,09423.6870,W,0.00,40.75,261116,,,A*4A
$GPGGA,205116.000,3902.1229,N,09423.6870,W,1,07,1.28,265.4,M,-30.6,M,,*5B
$GPRMC,205116.000,A,3902.1229,N,09423.6870,W,0.00,40.75,261116,,,A*4D
$GPGGA,205121.000,3902.1229,N,09423.6870,W,1,07,1.28,265.4,M,-30.6,M,,*5F
$GPRMC,205121.000,A,3902.1229,N,09423.6870,W,0.00,40.75,261116,,,A*49
$GPGGA,205126.000,3902.1229,N,09423.6870,W,1,07,1.28,265.4,M,-30.6,M,,*58
$GPRMC,205126.000,A,3902.1229,N,09423.6870,W,0.00,40.75,261116,,,A*4E
$GPGGA,205131.000,3902.1229,N,09423.6870,W,1,07,1.28,265.4,M,-30.6,M,,*5E
$GPRMC,205131.000,A,3902.1229,N,09423.6870,W,0.00,40.75,261116,,,A*48
$GPGGA,205136.000,3902.1230,N,09423.6870,W,1,08,1.08,265.4,M,-30.6,M,,*5C
$GPRMC,205136.000,A,3902.1230,N,09423.6870,W,0.00,40.75,261116,,,A*47
$GPGGA,205141.000,3902.1230,N,09423.6869,W,1,08,1.05,265.2,M,-30.6,M,,*5F
$GPRMC,205141.000,A,3902.1230,N,09423.6869,W,0.00,40.75,261116,,,A*4F
$GPGGA,205146.000,3902.1230,N,09423.6869,W,1,08,1.08,265.2,M,-30.6,M,,*55
$GPRMC,205146.000,A,3902.1230,N,09423.6869,W,0.00,40.75,261116,,,A*48
$GPGGA,205151.000,3902.1230,N,09423.6869,W,1,08,1.08,265.2,M,-30.6,M,,*53
$GPRMC,205151.000,A,3902.1230,N,09423.6869,W,0.00,40.75,261116,,,A*4E
$GPGGA,205156.000,3902.1230,N,09423.6869,W,1,08,1.08,265.2,M,-30.6,M,,*54
$GPRMC,205156.000,A,3902.1230,N,09423.6869,W,0.00,40.75,261116,,,A*49
$GPGGA,205201.000,3902.1230,N,09423.6869,W,1,08,1.08,265.2,M,-30.6,M,,*55
$GPRMC,205201.000,A,3902.1230,N,09423.6869,W,0.00,40.75,261116,,,A*48
$GPGGA,205206.000,3902.1230,N,09423.6869,W,1,08,1.08,265.2,M,-30.6,M,,*52
$GPRMC,205206.000,A,3902.1230,N,09423.6869,W,0.00,40.75,261116,,,A*4F
$GPGGA,205211.000,3902.1240,N,09423.6853,W,1,08,1.05,264.8,M,-30.6,M,,*5C
$GPRMC,205211.000,A,3902.1240,N,09423.6853,W,2.13,40.75,261116,,,A*47
$GPGGA,205216.000,3902.1263,N,09423.6910,W,1,08,1.05,264.2,M,-30.6,M,,*56
$GPRMC,205216.000,A,3902.1263,N,09423.6910,W,5.02,274.47,261116,,,A*74
$GPGGA,205221.000,3902.1206,N,09423.6937,W,1,08,1.05,263.5,M,-30.6,M,,*54
$GPRMC,205221.000,A,3902.1206,N,09423.6937,W,4.09,188.41,261116,,,A*7A
$GPGGA,205226.000,3902.1173,N,09423.6970,W,1,08,1.08,263.1,M,-30.6,M,,*58
$GPRMC,205226.000,A,3902.1173,N,09423.6970,W,2.60,243.60,261116,,,A*71
$GPGGA,205231.000,3902.1104,N,09423.7050,W,1,08,1.05,263.6,M,-30.6,M,,*5E
$GPRMC,205231.000,A,3902.1104,N,09423.7050,W,12.07,211.82,261116,,,A*46
$GPGGA,205236.000,3902.0974,N,09423.7111,W,1,08,1.08,262.1,M,-30.6,M,,*58
$GPRMC,205236.000,A,3902.0974,N,09423.7111,W,6.59,191.22,261116,,,A*74
$GPGGA,205241.000,3902.0870,N,09423.7061,W,1,08,1.08,260.5,M,-30.6,M,,*5D
$GPRMC,205241.000,A,3902.0870,N,09423.7061,W,11.93,143.80,261116,,,A*40
$GPGGA,205246.000,3902.0805,N,09423.6703,W,1,08,1.05,258.6,M,-30.6,M,,*5F
$GPRMC,205246.000,A,3902.0805,N,09423.6703,W,32.07,91.23,261116,,,A*7C
$GPGGA,205251.000,3902.0783,N,09423.6044,W,1,08,1.05,256.1,M,-30.6,M,,*55
$GPRMC,205251.000,A,3902.0783,N,09423.6044,W,39.91,93.31,261116,,,A*7A
$GPGGA,205256.000,3902.0762,N,09423.5332,W,1,06,1.31,254.9,M,-30.6,M,,*5F
$GPRMC,205256.000,A,3902.0762,N,09423.5332,W,39.00,91.31,261116,,,A*79
$GPGGA,205301.000,3902.0740,N,09423.4620,W,1,08,1.05,255.0,M,-30.6,M,,*5A
$GPRMC,205301.000,A,3902.0740,N,09423.4620,W,39.57,92.82,261116,,,A*74
$GPGGA,205306.000,3902.0725,N,09423.3925,W,1,07,1.10,254.6,M,-30.6,M,,*5F
$GPRMC,205306.000,A,3902.0725,N,09423.3925,W,38.18,88.68,261116,,,A*78
$GPGGA,205311.000,3902.0690,N,09423.3321,W,1,07,1.10,253.7,M,-30.6,M,,*5E
$GPRMC,205311.000,A,3902.0690,N,09423.3321,W,27.55,95.64,261116,,,A*78
$GPGGA,205316.000,3902.0660,N,09423.3077,W,1,08,1.05,253.2,M,-30.6,M,,*58
$GPRMC,205316.000,A,3902.0660,N,09423.3077,W,0.07,95.64,261116,,,A*42
$GPGGA,205321.000,3902.0652,N,09423.3068,W,1,08,1.05,251.9,M,-30.6,M,,*5A
$GPRMC,205321.000,A,3902.0652,N,09423.3068,W,0.17,95.64,261116,,,A*48
$GPGGA,205326.000,3902.0629,N,09423.3059,W,1,08,1.05,252.2,M,-30.6,M,,*5B
$GPRMC,205326.000,A,3902.0629,N,09423.3059,W,0.09,95.64,261116,,,A*4E
$GPGGA,205331.000,3902.0625,N,09423.3046,W,1,08,1.05,251.7,M,-30.6,M,,*59
$GPRMC,205331.000,A,3902.0625,N,09423.3046,W,0.06,95.64,261116,,,A*45
$GPGGA,205336.000,3902.0628,N,09423.3035,W,1,08,1.05,251.2,M,-30.6,M,,*52
$GPRMC,205336.000,A,3902.0628,N,09423.3035,W,6.99,93.65,261116,,,A*4C
$GPGGA,205341.000,3902.0722,N,09423.2843,W,1,08,1.08,255.3,M,-30.6,M,,*59
$GPRMC,205341.000,A,3902.0722,N,09423.2843,W,16.06,30.37,261116,,,A*76
$GPGGA,205346.000,3902.1030,N,09423.2752,W,1,08,1.05,258.3,M,-30.6,M,,*54
$GPRMC,205346.000,A,3902.1030,N,09423.2752,W,30.09,0.47,261116,,,A*44
$GPGGA,205351.000,3902.1484,N,09423.2734,W,1,08,1.08,254.9,M,-30.6,M,,*52
$GPRMC,205351.000,A,3902.1484,N,09423.2734,W,34.89,1.52,261116,,,A*40
$GPGGA,205356.000,3902.1967,N,09423.2709,W,1,08,1.08,250.3,M,-30.6,M,,*55
$GPRMC,205356.000,A,3902.1967,N,09423.2709,W,34.95,2.67,261116,,,A*41
$GPGGA,205401.000,3902.2430,N,09423.2657,W,1,08,1.08,246.1,M,-30.6,M,,*53
$GPRMC,205401.000,A,3902.2430,N,09423.2657,W,31.42,6.31,261116,,,A*4A
$GPGGA,205406.000,3902.2738,N,09423.2617,W,1,08,1.08,245.0,M,-30.6,M,,*59
$GPRMC,205406.000,A,3902.2738,N,09423.2617,W,14.19,3.31,261116,,,A*4E
$GPGGA,205411.000,3902.2837,N,09423.2628,W,1,08,1.08,244.0,M,-30.6,M,,*52
$GPRMC,205411.000,A,3902.2837,N,09423.2628,W,0.11,3.31,261116,,,A*79
$GPGGA,205416.000,3902.2841,N,09423.2635,W,1,08,1.08,243.8,M,-30.6,M,,*57
$GPRMC,205416.000,A,3902.2841,N,09423.2635,W,0.04,3.31,261116,,,A*77
$GPGGA,205421.000,3902.2851,N,09423.2635,W,1,08,1.05,244.3,M,-30.6,M,,*53
$GPRMC,205421.000,A,3902.2851,N,09423.2635,W,16.23,3.88,261116,,,A*42
$GPGGA,205426.000,3902.3175,N,09423.2613,W,1,08,1.08,245.1,M,-30.6,M,,*50
$GPRMC,205426.000,A,3902.3175,N,09423.2613,W,29.10,2.62,261116,,,A*46
$GPGGA,205431.000,3902.3628,N,09423.2579,W,1,08,1.08,247.7,M,-30.6,M,,*52
$GPRMC,205431.000,A,3902.3628,N,09423.2579,W,35.07,2.96,261116,,,A*40
$GPGGA,205436.000,3902.4139,N,09423.2557,W,1,08,1.08,251.4,M,-30.6,M,,*5D
$GPRMC,205436.000,A,3902.4139,N,09423.2557,W,35.85,1.48,261116,,,A*41
$GPGGA,205441.000,3902.4628,N,09423.2537,W,1,08,1.08,255.1,M,-30.6,M,,*5D
$GPRMC,205441.000,A,3902.4628,N,09423.2537,W,33.90,3.05,261116,,,A*49
$GPGGA,205446.000,3902.5114,N,09423.2502,W,1,08,1.08,257.0,M,-30.6,M,,*56
$GPRMC,205446.000,A,3902.5114,N,09423.2502,W,34.34,3.65,261116,,,A*4E
$GPGGA,205451.000,3902.5600,N,09423.2469,W,1,08,1.05,257.5,M,-30.6,M,,*56
$GPRMC,205451.000,A,3902.5600,N,09423.2469,W,34.97,2.00,261116,,,A*4D
$GPGGA,205456.000,3902.6082,N,09423.2449,W,1,08,1.05,259.7,M,-30.6,M,,*50
$GPRMC,205456.000,A,3902.6082,N,09423.2449,W,33.87,1.12,261116,,,A*41
$GPGGA,205501.000,3902.6444,N,09423.2436,W,1,08,1.08,263.9,M,-30.6,M,,*5F
$GPRMC,205501.000,A,3902.6444,N,09423.2436,W,18.02,1.39,261116,,,A*49
$GPGGA,205506.000,3902.6558,N,09423.2436,W,1,08,1.08,266.5,M,-30.6,M,,*5D
$GPRMC,205506.000,A,3902.6558,N,09423.2436,W,0.07,1.39,261116,,,A*7E
$GPGGA,205511.000,3902.6562,N,09423.2439,W,1,08,1.08,268.4,M,-30.6,M,,*52
$GPRMC,205511.000,A,3902.6562,N,09423.2439,W,0.03,1.39,261116,,,A*7A
$GPGGA,205516.000,3902.6550,N,09423.2442,W,1,08,1.05,271.1,M,-30.6,M,,*58
$GPRMC,205516.000,A,3902.6550,N,09423.2442,W,0.05,1.39,261116,,,A*76
$GPGGA,205521.000,3902.6541,N,09423.2440,W,1,08,1.05,270.9,M,-30.6,M,,*57
$GPRMC,205521.000,A,3902.6541,N,09423.2440,W,0.04,1.39,261116,,,A*71
$GPGGA,205526.000,3902.6538,N,09423.2438,W,1,08,1.05,270.9,M,-30.6,M,,*51
$GPRMC,205526.000,A,3902.6538,N,09423.2438,W,16.18,3.56,261116,,,A*46
$GPGGA,205531.000,3902.6821,N,09423.2422,W,1,08,1.08,272.1,M,-30.6,M,,*5E
$GPRMC,205531.000,A,3902.6821,N,09423.2422,W,21.58,1.55,261116,,,A*4F
$GPGGA,205536.000,3902.7074,N,09423.2416,W,1,07,1.26,272.8,M,-30.6,M,,*5D
$GPRMC,205536.000,A,3902.7074,N,09423.2416,W,12.17,358.48,261116,,,A*4E
$GPGGA,205541.000,3902.7171,N,09423.2421,W,1,07,1.26,271.9,M,-30.6,M,,*5F
$GPRMC,205541.000,A,3902.7171,N,09423.2421,W,0.55,358.48,261116,,,A*7B
$GPGGA,205546.000,3902.7180,N,09423.2422,W,1,07,1.26,273.1,M,-30.6,M,,*5F
$GPRMC,205546.000,A,3902.7180,N,09423.2422,W,0.12,358.48,261116,,,A*72
$GPGGA,205551.000,3902.7178,N,09423.2425,W,1,07,1.20,272.4,M,-30.6,M,,*5B
$GPRMC,205551.000,A,3902.7178,N,09423.2425,W,0.11,358.48,261116,,,A*77
